[{"id":1,"lon":"22.27135","lat":"50.08171","address":"30 Mayer Pass","zip":"96-130","name":"Tammy Russell","USDAid":5452955,"month":"sit amet","days":19,"timeStart":"17:03","timeEnd":"7:47","products":[{"item":"a"},{"item":"a"},{"item":"b"},{"item":"c"},{"item":"b"},{"item":"a"}],"rawDATA":"Zloty"},
{"id":2,"lon":"140.45","lat":"37.15","address":"73591 Di Loreto Junction","zip":"960-1476","name":"Elizabeth Grant","USDAid":5186803,"month":"erat curabitur","days":29,"timeStart":"16:31","timeEnd":"22:08","products":[{"item":"c"},{"item":"a"}],"rawDATA":"Yen"},
{"id":3,"lon":"123.7076","lat":"10.1624","address":"1858 Birchwood Road","zip":"8711","name":"Jeffrey Clark","USDAid":8360921,"month":"posuere metus","days":17,"timeStart":"6:56","timeEnd":"10:03","products":[{"item":"b"},{"item":"a"},{"item":"a"},{"item":"b"},{"item":"c"},{"item":"a"},{"item":"b"},{"item":"c"},{"item":"a"},{"item":"c"}],"rawDATA":"Peso"},
{"id":4,"lon":"-44.43333","lat":"-16.20639","address":"84 7th Point","zip":"39330-000","name":"Diane Porter","USDAid":8721128,"month":"sapien quis","days":30,"timeStart":"18:50","timeEnd":"10:38","products":[{"item":"b"}],"rawDATA":"Real"},
{"id":5,"lon":"4.8411","lat":"45.7904","address":"934 Ludington Park","zip":"69649 CEDEX","name":"Jerry Morales","USDAid":1406347,"month":"sit amet","days":13,"timeStart":"0:25","timeEnd":"22:36","products":[{"item":"c"},{"item":"a"},{"item":"c"},{"item":"a"}],"rawDATA":"Euro"},
{"id":6,"lon":"121.1803","lat":"13.4117","address":"004 Arrowood Way","zip":"5200","name":"Anthony Fuller","USDAid":1274185,"month":"rhoncus","days":22,"timeStart":"19:04","timeEnd":"16:14","products":[{"item":"a"},{"item":"a"},{"item":"c"},{"item":"c"},{"item":"c"},{"item":"c"},{"item":"c"}],"rawDATA":"Peso"},
{"id":7,"lon":"119.9045","lat":"15.435","address":"595 Hoard Crossing","zip":"6615","name":"Nicole Wright","USDAid":4388769,"month":"ut odio","days":16,"timeStart":"1:57","timeEnd":"19:59","products":[{"item":"c"},{"item":"b"},{"item":"c"},{"item":"c"}],"rawDATA":"Peso"},
{"id":8,"lon":"114.98438","lat":"28.86248","address":"96224 Prentice Street","zip":null,"name":"Cynthia Boyd","USDAid":2470193,"month":"aenean","days":14,"timeStart":"21:23","timeEnd":"4:50","products":[{"item":"a"}],"rawDATA":"Yuan Renminbi"},
{"id":9,"lon":"47.24488","lat":"42.70008","address":"207 Redwing Crossing","zip":"368209","name":"Christine Washington","USDAid":4178874,"month":"viverra dapibus","days":15,"timeStart":"3:28","timeEnd":"9:46","products":[{"item":"c"},{"item":"a"}],"rawDATA":"Ruble"},
{"id":10,"lon":"115.42607","lat":"28.10012","address":"3 Debra Hill","zip":null,"name":"Randy Williamson","USDAid":557629,"month":"eu tincidunt","days":19,"timeStart":"15:36","timeEnd":"1:58","products":[{"item":"b"},{"item":"a"},{"item":"b"},{"item":"c"},{"item":"b"},{"item":"a"},{"item":"c"},{"item":"b"}],"rawDATA":"Yuan Renminbi"},
{"id":11,"lon":"-85.32924","lat":"9.85014","address":"804 Homewood Trail","zip":"50906","name":"Andrea Webb","USDAid":3897871,"month":"montes","days":11,"timeStart":"10:24","timeEnd":"20:51","products":[{"item":"c"},{"item":"c"},{"item":"c"}],"rawDATA":"Colon"},
{"id":12,"lon":"120.53934","lat":"42.58628","address":"196 Upham Junction","zip":null,"name":"Ann Harvey","USDAid":3455984,"month":"pede justo","days":3,"timeStart":"22:20","timeEnd":"20:59","products":[{"item":"a"},{"item":"a"},{"item":"a"},{"item":"c"},{"item":"a"},{"item":"b"},{"item":"a"},{"item":"b"},{"item":"c"}],"rawDATA":"Yuan Renminbi"},
{"id":13,"lon":"19.09595","lat":"53.25541","address":"87393 Schiller Way","zip":"87-207","name":"Laura Kelley","USDAid":8483669,"month":"mi","days":20,"timeStart":"6:43","timeEnd":"9:26","products":[{"item":"c"},{"item":"c"},{"item":"b"},{"item":"b"},{"item":"c"},{"item":"a"},{"item":"b"},{"item":"b"},{"item":"c"}],"rawDATA":"Zloty"},
{"id":14,"lon":"110.7","lat":"-6.53333","address":"405 Little Fleur Road","zip":null,"name":"Jessica Diaz","USDAid":3114824,"month":"in sapien","days":13,"timeStart":"10:19","timeEnd":"5:20","products":[{"item":"b"},{"item":"a"},{"item":"c"},{"item":"c"},{"item":"c"}],"rawDATA":"Rupiah"},
{"id":15,"lon":"-110.9845","lat":"32.2691","address":"03 Laurel Street","zip":"85705","name":"Howard Harvey","USDAid":3275331,"month":"sed","days":28,"timeStart":"14:07","timeEnd":"19:04","products":[{"item":"a"},{"item":"c"},{"item":"c"},{"item":"b"},{"item":"b"},{"item":"b"},{"item":"a"},{"item":"c"},{"item":"a"}],"rawDATA":"Dollar"},
{"id":16,"lon":"23.88333","lat":"38.11667","address":"3694 Parkside Plaza","zip":null,"name":"Debra Hill","USDAid":7869899,"month":"elementum in","days":10,"timeStart":"2:00","timeEnd":"7:28","products":[{"item":"a"},{"item":"b"},{"item":"a"},{"item":"a"},{"item":"a"},{"item":"c"}],"rawDATA":"Euro"},
{"id":17,"lon":"44.36204","lat":"40.2991","address":"15 Melrose Way","zip":null,"name":"Jose Boyd","USDAid":4820270,"month":"felis sed","days":16,"timeStart":"21:16","timeEnd":"21:07","products":[{"item":"a"},{"item":"c"},{"item":"a"},{"item":"a"},{"item":"a"},{"item":"c"},{"item":"c"},{"item":"c"},{"item":"c"}],"rawDATA":"Dram"},
{"id":18,"lon":"30.36072","lat":"59.93111","address":"9 Novick Junction","zip":"309534","name":"Earl Collins","USDAid":748673,"month":"cubilia","days":23,"timeStart":"21:19","timeEnd":"3:27","products":[{"item":"a"},{"item":"a"},{"item":"c"},{"item":"c"},{"item":"a"},{"item":"c"},{"item":"b"}],"rawDATA":"Ruble"},
{"id":19,"lon":"13.1102","lat":"55.7919","address":"21726 Delladonna Avenue","zip":"244 24","name":"Keith Carr","USDAid":9484042,"month":"platea dictumst","days":12,"timeStart":"10:19","timeEnd":"6:58","products":[{"item":"a"},{"item":"a"},{"item":"c"},{"item":"c"},{"item":"b"},{"item":"a"},{"item":"b"},{"item":"a"}],"rawDATA":"Krona"},
{"id":20,"lon":"-5.7442","lat":"6.99041","address":"378 Saint Paul Alley","zip":null,"name":"Bruce Willis","USDAid":9048311,"month":"justo in","days":20,"timeStart":"13:15","timeEnd":"8:50","products":[{"item":"c"},{"item":"c"},{"item":"a"},{"item":"c"},{"item":"a"},{"item":"b"},{"item":"c"},{"item":"b"}],"rawDATA":"Franc"},
{"id":21,"lon":"-112.86856","lat":"49.41668","address":"4351 Briar Crest Park","zip":"J7G","name":"Sandra Stewart","USDAid":479682,"month":"ligula","days":25,"timeStart":"1:09","timeEnd":"8:44","products":[{"item":"c"},{"item":"c"},{"item":"a"}],"rawDATA":"Dollar"},
{"id":22,"lon":"113.31282","lat":"29.66873","address":"35 Troy Plaza","zip":null,"name":"Stephanie Richardson","USDAid":1233738,"month":"sociis natoque","days":17,"timeStart":"10:46","timeEnd":"17:03","products":[{"item":"b"},{"item":"a"},{"item":"b"},{"item":"c"},{"item":"a"},{"item":"c"},{"item":"b"},{"item":"b"}],"rawDATA":"Yuan Renminbi"},
{"id":23,"lon":"174.5","lat":"-35.61667","address":"1880 Oak Alley","zip":"0154","name":"Benjamin Sims","USDAid":7359402,"month":"nullam porttitor","days":26,"timeStart":"11:50","timeEnd":"22:32","products":[{"item":"c"},{"item":"b"},{"item":"b"},{"item":"b"},{"item":"a"},{"item":"a"}],"rawDATA":"Dollar"},
{"id":24,"lon":"-1.4333","lat":"46.6667","address":"237 Sunbrook Hill","zip":"85009 CEDEX","name":"Carolyn Owens","USDAid":6472349,"month":"quis","days":6,"timeStart":"16:46","timeEnd":"2:47","products":[{"item":"c"},{"item":"b"},{"item":"a"},{"item":"b"},{"item":"c"},{"item":"b"},{"item":"b"}],"rawDATA":"Euro"},
{"id":25,"lon":"15.14083","lat":"45.93417","address":"25 Everett Road","zip":"8230","name":"Kathleen Reyes","USDAid":4602648,"month":"felis fusce","days":18,"timeStart":"0:01","timeEnd":"15:55","products":[{"item":"c"},{"item":"c"},{"item":"a"},{"item":"c"}],"rawDATA":"Euro"},
{"id":26,"lon":"111.4987","lat":"-7.187","address":"544 Acker Road","zip":null,"name":"Joshua Little","USDAid":5231011,"month":"ut suscipit","days":3,"timeStart":"4:14","timeEnd":"6:06","products":[{"item":"c"},{"item":"a"}],"rawDATA":"Rupiah"},
{"id":27,"lon":"107.8771","lat":"-7.0137","address":"18564 Evergreen Street","zip":null,"name":"Rebecca Larson","USDAid":5349401,"month":"aliquet","days":14,"timeStart":"5:29","timeEnd":"18:33","products":[{"item":"c"}],"rawDATA":"Rupiah"},
{"id":28,"lon":"135.33199","lat":"34.71562","address":"732 Buhler Alley","zip":"663-8234","name":"Paula Hernandez","USDAid":9894842,"month":"est","days":12,"timeStart":"22:43","timeEnd":"0:08","products":[{"item":"c"},{"item":"c"},{"item":"a"},{"item":"c"}],"rawDATA":"Yen"},
{"id":29,"lon":"-87.4875","lat":"13.53611","address":"31 Fordem Drive","zip":null,"name":"Cynthia Peterson","USDAid":575776,"month":"vestibulum","days":28,"timeStart":"1:34","timeEnd":"16:22","products":[{"item":"a"},{"item":"a"}],"rawDATA":"Lempira"},
{"id":30,"lon":"41.52056","lat":"44.39333","address":"8 Mallard Center","zip":"352292","name":"Johnny Lane","USDAid":4579588,"month":"justo","days":20,"timeStart":"10:34","timeEnd":"23:27","products":[{"item":"b"},{"item":"a"},{"item":"b"},{"item":"c"},{"item":"b"},{"item":"a"},{"item":"a"},{"item":"b"},{"item":"a"}],"rawDATA":"Ruble"},
{"id":31,"lon":"24.1368","lat":"65.8355","address":"3149 Vera Lane","zip":"953 91","name":"Laura Collins","USDAid":5165167,"month":"ipsum","days":24,"timeStart":"11:12","timeEnd":"14:47","products":[{"item":"b"},{"item":"b"}],"rawDATA":"Krona"},
{"id":32,"lon":"111.7159","lat":"-8.1965","address":"23 Village Crossing","zip":null,"name":"Kathleen Bishop","USDAid":4557350,"month":"quam","days":18,"timeStart":"6:09","timeEnd":"19:59","products":[{"item":"a"}],"rawDATA":"Rupiah"},
{"id":33,"lon":"27.12507","lat":"-22.54605","address":"8 Browning Terrace","zip":null,"name":"Harry Fernandez","USDAid":6495244,"month":"lorem id","days":2,"timeStart":"23:32","timeEnd":"5:19","products":[{"item":"c"},{"item":"c"},{"item":"a"},{"item":"b"},{"item":"b"},{"item":"a"},{"item":"b"},{"item":"b"},{"item":"c"}],"rawDATA":"Pula"},
{"id":34,"lon":"18.10003","lat":"44.54771","address":"67236 Sullivan Court","zip":null,"name":"Fred Mendoza","USDAid":2399199,"month":"lorem","days":3,"timeStart":"15:24","timeEnd":"8:53","products":[{"item":"c"},{"item":"a"},{"item":"a"},{"item":"a"},{"item":"c"},{"item":"b"},{"item":"b"},{"item":"c"}],"rawDATA":"Marka"},
{"id":35,"lon":"29.98333","lat":"-26.53333","address":"92 Gateway Alley","zip":"2370","name":"Eric Kelley","USDAid":5785858,"month":"lacus at","days":31,"timeStart":"3:25","timeEnd":"10:48","products":[{"item":"c"},{"item":"b"},{"item":"a"},{"item":"a"},{"item":"b"}],"rawDATA":"Rand"},
{"id":36,"lon":"116.54305","lat":"25.93702","address":"71164 Walton Road","zip":null,"name":"Edward Carr","USDAid":5071578,"month":"lobortis","days":11,"timeStart":"18:41","timeEnd":"17:06","products":[{"item":"c"}],"rawDATA":"Yuan Renminbi"},
{"id":37,"lon":"60.5698","lat":"57.1576","address":"0889 Summerview Hill","zip":"624088","name":"Bobby Pierce","USDAid":1767564,"month":"et eros","days":6,"timeStart":"14:49","timeEnd":"11:46","products":[{"item":"a"},{"item":"a"},{"item":"c"},{"item":"a"},{"item":"c"},{"item":"c"},{"item":"b"},{"item":"c"},{"item":"a"},{"item":"a"}],"rawDATA":"Ruble"},
{"id":38,"lon":"109.67691","lat":"34.80653","address":"4 Service Plaza","zip":null,"name":"Jessica Bailey","USDAid":2516190,"month":"primis in","days":7,"timeStart":"1:37","timeEnd":"14:42","products":[{"item":"b"},{"item":"b"},{"item":"c"},{"item":"c"},{"item":"b"},{"item":"b"}],"rawDATA":"Yuan Renminbi"},
{"id":39,"lon":"136.60881","lat":"45.05278","address":"53967 Emmet Terrace","zip":"692150","name":"Willie Dunn","USDAid":1696979,"month":"integer ac","days":8,"timeStart":"23:14","timeEnd":"23:43","products":[{"item":"b"},{"item":"b"},{"item":"a"},{"item":"a"},{"item":"c"},{"item":"c"},{"item":"b"},{"item":"c"}],"rawDATA":"Ruble"},
{"id":40,"lon":"43.59547","lat":"13.98178","address":"6706 Haas Junction","zip":null,"name":"Kelly Morrison","USDAid":2208504,"month":"morbi","days":22,"timeStart":"21:39","timeEnd":"9:11","products":[{"item":"a"},{"item":"c"},{"item":"a"},{"item":"c"},{"item":"b"},{"item":"a"}],"rawDATA":"Rial"},
{"id":41,"lon":"121.88924","lat":"17.14854","address":"4208 Browning Center","zip":"3300","name":"Jesse Hill","USDAid":6090311,"month":"et","days":1,"timeStart":"11:01","timeEnd":"8:22","products":[{"item":"c"},{"item":"c"},{"item":"a"},{"item":"a"},{"item":"a"},{"item":"b"},{"item":"b"}],"rawDATA":"Peso"},
{"id":42,"lon":"-56.44611","lat":"-14.40861","address":"1412 Knutson Trail","zip":"78400-000","name":"Marie Berry","USDAid":4795821,"month":"quis tortor","days":1,"timeStart":"0:05","timeEnd":"17:20","products":[{"item":"c"},{"item":"a"},{"item":"a"}],"rawDATA":"Real"},
{"id":43,"lon":"124.3025","lat":"-9.8714","address":"3190 Bunting Point","zip":null,"name":"George Hart","USDAid":6972364,"month":"quis augue","days":18,"timeStart":"18:22","timeEnd":"9:43","products":[{"item":"b"},{"item":"a"},{"item":"a"},{"item":"a"},{"item":"b"}],"rawDATA":"Rupiah"},
{"id":44,"lon":"-75.28411","lat":"-11.95591","address":"6564 Cascade Trail","zip":null,"name":"Jesse Peters","USDAid":7592955,"month":"in","days":2,"timeStart":"1:02","timeEnd":"14:34","products":[{"item":"c"},{"item":"b"},{"item":"c"}],"rawDATA":"Sol"},
{"id":45,"lon":"83.76667","lat":"27.98333","address":"8 Lillian Pass","zip":null,"name":"Joyce Martin","USDAid":9491472,"month":"eu felis","days":9,"timeStart":"1:14","timeEnd":"11:41","products":[{"item":"a"},{"item":"c"},{"item":"c"},{"item":"b"},{"item":"b"},{"item":"c"}],"rawDATA":"Rupee"},
{"id":46,"lon":"-72.9963","lat":"41.5503","address":"192 Jenna Place","zip":"06705","name":"Christopher Henderson","USDAid":2930096,"month":"erat","days":19,"timeStart":"23:27","timeEnd":"7:47","products":[{"item":"a"},{"item":"c"},{"item":"c"},{"item":"c"},{"item":"a"}],"rawDATA":"Dollar"},
{"id":47,"lon":"141.56722","lat":"42.97583","address":"24579 Elka Terrace","zip":"349-1111","name":"Wanda Dunn","USDAid":1799038,"month":"sed","days":19,"timeStart":"13:14","timeEnd":"12:01","products":[{"item":"c"},{"item":"a"},{"item":"a"},{"item":"c"},{"item":"a"},{"item":"b"},{"item":"b"}],"rawDATA":"Yen"},
{"id":48,"lon":"120.4781","lat":"16.263","address":"568 Portage Trail","zip":"2508","name":"Craig Ellis","USDAid":8969678,"month":"fermentum","days":20,"timeStart":"12:01","timeEnd":"12:32","products":[{"item":"a"},{"item":"c"},{"item":"b"},{"item":"b"},{"item":"c"},{"item":"b"},{"item":"c"},{"item":"c"},{"item":"c"},{"item":"b"}],"rawDATA":"Peso"},
{"id":49,"lon":"2.8788","lat":"48.9601","address":"78 Goodland Street","zip":"77109 CEDEX","name":"Margaret Morrison","USDAid":6166231,"month":"duis","days":9,"timeStart":"13:23","timeEnd":"14:01","products":[{"item":"b"},{"item":"a"},{"item":"c"},{"item":"a"},{"item":"a"},{"item":"a"},{"item":"a"},{"item":"b"},{"item":"a"},{"item":"a"}],"rawDATA":"Euro"},
{"id":50,"lon":"109.16651","lat":"13.82738","address":"13555 Vernon Parkway","zip":null,"name":"Jeremy Foster","USDAid":2087304,"month":"donec semper","days":13,"timeStart":"23:16","timeEnd":"17:43","products":[{"item":"c"},{"item":"c"},{"item":"a"},{"item":"c"},{"item":"b"},{"item":"a"},{"item":"a"},{"item":"c"}],"rawDATA":"Dong"},
{"id":51,"lon":"101.7118","lat":"3.1683","address":"60 Porter Alley","zip":"40612","name":"Bruce Hawkins","USDAid":3206352,"month":"vitae ipsum","days":23,"timeStart":"14:21","timeEnd":"23:56","products":[{"item":"b"},{"item":"b"},{"item":"b"},{"item":"a"}],"rawDATA":"Ringgit"},
{"id":52,"lon":"108.32","lat":"-6.32639","address":"056 Larry Street","zip":null,"name":"James Greene","USDAid":9779450,"month":"leo rhoncus","days":24,"timeStart":"13:05","timeEnd":"19:17","products":[{"item":"c"},{"item":"a"},{"item":"b"}],"rawDATA":"Rupiah"},
{"id":53,"lon":"3.64776","lat":"6.84323","address":"6421 Warrior Crossing","zip":null,"name":"Justin Moore","USDAid":8900466,"month":"sem","days":20,"timeStart":"20:42","timeEnd":"19:58","products":[{"item":"b"},{"item":"a"},{"item":"a"}],"rawDATA":"Naira"},
{"id":54,"lon":"-13.20315","lat":"27.16224","address":"67 Debra Terrace","zip":null,"name":"George Wagner","USDAid":9939363,"month":"eget eros","days":26,"timeStart":"19:58","timeEnd":"14:36","products":[{"item":"b"},{"item":"a"}],"rawDATA":"Dirham"},
{"id":55,"lon":"-35.82444","lat":"-9.56333","address":"737 New Castle Alley","zip":"57120-000","name":"Frank Stevens","USDAid":9953473,"month":"at","days":8,"timeStart":"13:52","timeEnd":"17:08","products":[{"item":"b"},{"item":"a"},{"item":"a"},{"item":"a"},{"item":"a"},{"item":"b"},{"item":"b"},{"item":"b"},{"item":"a"}],"rawDATA":"Real"},
{"id":56,"lon":"6.0182","lat":"47.2488","address":"7450 Iowa Drive","zip":"25086 CEDEX 9","name":"Robert Miller","USDAid":1978994,"month":"in congue","days":14,"timeStart":"5:02","timeEnd":"1:02","products":[{"item":"b"},{"item":"b"},{"item":"a"},{"item":"c"},{"item":"b"}],"rawDATA":"Euro"},
{"id":57,"lon":"21.40841","lat":"60.80043","address":"089 Johnson Way","zip":"23501","name":"Amanda Gray","USDAid":2975236,"month":"duis aliquam","days":28,"timeStart":"18:07","timeEnd":"12:45","products":[{"item":"c"},{"item":"a"},{"item":"c"},{"item":"a"},{"item":"b"},{"item":"a"},{"item":"c"},{"item":"a"},{"item":"a"}],"rawDATA":"Euro"},
{"id":58,"lon":"-79.86458","lat":"22.61611","address":"40 Atwood Park","zip":null,"name":"Jeffrey Campbell","USDAid":3313613,"month":"sem","days":5,"timeStart":"8:09","timeEnd":"18:25","products":[{"item":"a"},{"item":"c"},{"item":"a"},{"item":"c"},{"item":"c"},{"item":"b"},{"item":"a"},{"item":"c"}],"rawDATA":"Peso"},
{"id":59,"lon":"-83.51095","lat":"22.50528","address":"76558 Melvin Pass","zip":null,"name":"Arthur Wagner","USDAid":2276930,"month":"aliquet","days":30,"timeStart":"17:50","timeEnd":"6:22","products":[{"item":"b"},{"item":"b"},{"item":"c"},{"item":"a"},{"item":"c"}],"rawDATA":"Peso"},
{"id":60,"lon":"113.8132","lat":"-6.9188","address":"90 Marquette Park","zip":null,"name":"Julia Taylor","USDAid":4657961,"month":"morbi","days":24,"timeStart":"11:17","timeEnd":"7:22","products":[{"item":"c"},{"item":"a"}],"rawDATA":"Rupiah"},
{"id":61,"lon":"-80.0649","lat":"42.1827","address":"1 Vahlen Junction","zip":"16550","name":"Rachel Sanchez","USDAid":65611,"month":"semper porta","days":2,"timeStart":"1:44","timeEnd":"3:54","products":[{"item":"b"},{"item":"b"},{"item":"a"},{"item":"c"},{"item":"b"},{"item":"c"},{"item":"b"},{"item":"b"},{"item":"c"}],"rawDATA":"Dollar"},
{"id":62,"lon":"2.4432","lat":"48.8642","address":"14202 Maple Wood Court","zip":"93187 CEDEX","name":"Anne Barnes","USDAid":8036541,"month":"purus","days":20,"timeStart":"1:29","timeEnd":"6:13","products":[{"item":"a"},{"item":"a"},{"item":"b"},{"item":"b"},{"item":"c"},{"item":"b"},{"item":"b"}],"rawDATA":"Euro"},
{"id":63,"lon":"-93.6092","lat":"32.3401","address":"00498 Hanson Pass","zip":"71115","name":"Janice Garza","USDAid":8159249,"month":"pede ullamcorper","days":10,"timeStart":"18:47","timeEnd":"21:43","products":[{"item":"a"},{"item":"c"},{"item":"a"},{"item":"a"},{"item":"c"},{"item":"b"},{"item":"b"}],"rawDATA":"Dollar"},
{"id":64,"lon":"-48.68472","lat":"-26.63222","address":"4498 Sachs Lane","zip":"88390-000","name":"Cheryl Austin","USDAid":2170878,"month":"eleifend quam","days":27,"timeStart":"7:48","timeEnd":"8:47","products":[{"item":"c"},{"item":"a"},{"item":"c"},{"item":"c"},{"item":"a"},{"item":"a"},{"item":"c"},{"item":"c"}],"rawDATA":"Real"},
{"id":65,"lon":"36.13138","lat":"34.89637","address":"3 Utah Lane","zip":null,"name":"Helen Woods","USDAid":5372007,"month":"vivamus","days":24,"timeStart":"12:53","timeEnd":"10:28","products":[{"item":"a"},{"item":"b"},{"item":"c"},{"item":"c"},{"item":"b"},{"item":"a"},{"item":"a"},{"item":"c"},{"item":"a"},{"item":"a"}],"rawDATA":"Pound"},
{"id":66,"lon":"60.36389","lat":"41.37833","address":"8 Petterle Point","zip":null,"name":"Bruce Castillo","USDAid":3796786,"month":"dui","days":29,"timeStart":"2:56","timeEnd":"14:23","products":[{"item":"b"},{"item":"c"}],"rawDATA":"Som"},
{"id":67,"lon":"116.2928","lat":"28.00653","address":"0 School Crossing","zip":null,"name":"Bonnie Baker","USDAid":8160223,"month":"curabitur convallis","days":28,"timeStart":"5:39","timeEnd":"17:37","products":[{"item":"c"},{"item":"a"},{"item":"a"},{"item":"c"},{"item":"b"},{"item":"b"},{"item":"b"}],"rawDATA":"Yuan Renminbi"},
{"id":68,"lon":"-8.5","lat":"40.9167","address":"91351 Green Circle","zip":"3700-599","name":"Randy Bradley","USDAid":6924698,"month":"natoque","days":18,"timeStart":"8:01","timeEnd":"14:41","products":[{"item":"b"}],"rawDATA":"Euro"},
{"id":69,"lon":"-4.18296","lat":"14.4843","address":"79 Fairfield Terrace","zip":null,"name":"Edward Carr","USDAid":5370230,"month":"fusce posuere","days":10,"timeStart":"3:54","timeEnd":"9:24","products":[{"item":"c"},{"item":"a"},{"item":"b"},{"item":"c"},{"item":"c"},{"item":"c"},{"item":"b"},{"item":"c"},{"item":"b"}],"rawDATA":"Franc"},
{"id":70,"lon":"-15.26667","lat":"13.48333","address":"14 Blackbird Avenue","zip":null,"name":"Chris Burton","USDAid":9781918,"month":"posuere","days":21,"timeStart":"21:55","timeEnd":"1:48","products":[{"item":"c"},{"item":"c"},{"item":"b"},{"item":"a"},{"item":"c"},{"item":"b"},{"item":"b"},{"item":"b"}],"rawDATA":"Dalasi"},
{"id":71,"lon":"42.11833","lat":"16.70222","address":"34 Monument Hill","zip":null,"name":"Jeffrey Carpenter","USDAid":9151920,"month":"sapien","days":31,"timeStart":"13:11","timeEnd":"4:29","products":[{"item":"a"},{"item":"a"},{"item":"b"},{"item":"b"},{"item":"a"},{"item":"c"},{"item":"a"},{"item":"a"},{"item":"c"}],"rawDATA":"Rial"},
{"id":72,"lon":"125.945","lat":"8.96889","address":"5 Sachs Trail","zip":"8301","name":"Jack Oliver","USDAid":4731756,"month":"montes nascetur","days":11,"timeStart":"3:59","timeEnd":"20:49","products":[{"item":"c"}],"rawDATA":"Peso"},
{"id":73,"lon":"21.92579","lat":"50.04788","address":"58589 Sauthoff Junction","zip":"36-047","name":"Judith Kim","USDAid":2932524,"month":"diam","days":1,"timeStart":"16:00","timeEnd":"1:42","products":[{"item":"a"},{"item":"b"},{"item":"c"},{"item":"a"},{"item":"a"},{"item":"b"},{"item":"c"},{"item":"b"},{"item":"a"}],"rawDATA":"Zloty"},
{"id":74,"lon":"112.5617","lat":"-8.0074","address":"338 Sunbrook Plaza","zip":null,"name":"Judith Snyder","USDAid":8423037,"month":"ante","days":22,"timeStart":"10:47","timeEnd":"2:21","products":[{"item":"b"},{"item":"b"}],"rawDATA":"Rupiah"},
{"id":75,"lon":"48.8","lat":"-19.9","address":"24390 Fairfield Lane","zip":null,"name":"Gary Martinez","USDAid":673108,"month":"eget congue","days":5,"timeStart":"18:21","timeEnd":"13:35","products":[{"item":"c"},{"item":"b"},{"item":"a"},{"item":"b"},{"item":"b"}],"rawDATA":"Ariary"},
{"id":76,"lon":"1.4826","lat":"43.6604","address":"43 Dorton Street","zip":"31244 CEDEX","name":"Carol Morrison","USDAid":1090357,"month":"fringilla","days":11,"timeStart":"5:47","timeEnd":"10:24","products":[{"item":"b"},{"item":"c"},{"item":"a"},{"item":"b"},{"item":"b"},{"item":"c"}],"rawDATA":"Euro"},
{"id":77,"lon":"32.4465","lat":"54.334","address":"499 Lakewood Gardens Hill","zip":"162535","name":"Roy Hunter","USDAid":5105385,"month":"pulvinar","days":1,"timeStart":"18:11","timeEnd":"23:10","products":[{"item":"b"},{"item":"c"},{"item":"b"},{"item":"a"},{"item":"a"}],"rawDATA":"Ruble"},
{"id":78,"lon":"102.15803","lat":"33.33982","address":"315 Killdeer Junction","zip":null,"name":"Phyllis Romero","USDAid":3698263,"month":"nam nulla","days":29,"timeStart":"16:57","timeEnd":"19:59","products":[{"item":"a"},{"item":"a"},{"item":"a"},{"item":"c"},{"item":"c"},{"item":"b"},{"item":"c"}],"rawDATA":"Yuan Renminbi"},
{"id":79,"lon":"37.68262","lat":"49.85019","address":"70 Pierstorff Court","zip":null,"name":"Kimberly Williamson","USDAid":5667338,"month":"nulla suspendisse","days":1,"timeStart":"2:23","timeEnd":"1:44","products":[{"item":"a"},{"item":"b"},{"item":"c"},{"item":"c"},{"item":"a"},{"item":"b"},{"item":"a"}],"rawDATA":"Hryvnia"},
{"id":80,"lon":"13.26436","lat":"10.26761","address":"54 Vidon Terrace","zip":null,"name":"Kimberly Riley","USDAid":3079357,"month":"ultrices","days":28,"timeStart":"6:24","timeEnd":"6:38","products":[{"item":"a"},{"item":"c"},{"item":"a"},{"item":"c"},{"item":"a"}],"rawDATA":"Naira"},
{"id":81,"lon":"102.69333","lat":"49.395","address":"7 Fordem Trail","zip":null,"name":"John Knight","USDAid":451803,"month":"nec","days":8,"timeStart":"1:44","timeEnd":"10:10","products":[{"item":"b"},{"item":"a"},{"item":"c"},{"item":"c"},{"item":"b"}],"rawDATA":"Tugrik"},
{"id":82,"lon":"120.99694","lat":"31.26698","address":"4 Morrow Parkway","zip":null,"name":"Christine Burke","USDAid":9183458,"month":"quisque","days":6,"timeStart":"0:14","timeEnd":"10:23","products":[{"item":"b"},{"item":"a"},{"item":"a"},{"item":"a"},{"item":"b"},{"item":"a"},{"item":"b"},{"item":"b"},{"item":"c"}],"rawDATA":"Yuan Renminbi"},
{"id":83,"lon":"106.65814","lat":"32.16377","address":"47 Monterey Lane","zip":null,"name":"Stephen Wallace","USDAid":1449098,"month":"cubilia","days":16,"timeStart":"15:46","timeEnd":"10:51","products":[{"item":"b"}],"rawDATA":"Yuan Renminbi"},
{"id":84,"lon":"108.6514","lat":"-7.659","address":"8 Badeau Crossing","zip":null,"name":"Eugene Torres","USDAid":9612804,"month":"lobortis ligula","days":5,"timeStart":"13:21","timeEnd":"13:35","products":[{"item":"c"},{"item":"a"},{"item":"b"},{"item":"c"},{"item":"b"},{"item":"c"},{"item":"a"},{"item":"c"}],"rawDATA":"Rupiah"},
{"id":85,"lon":"-7.5667","lat":"38.2833","address":"34686 School Crossing","zip":"7050-511","name":"Jack Adams","USDAid":3053956,"month":"eros viverra","days":24,"timeStart":"7:28","timeEnd":"8:01","products":[{"item":"c"},{"item":"c"},{"item":"a"},{"item":"a"},{"item":"c"},{"item":"c"}],"rawDATA":"Euro"},
{"id":86,"lon":"25.28333","lat":"36.73333","address":"4 Jay Place","zip":null,"name":"Katherine Moore","USDAid":4465804,"month":"lorem","days":21,"timeStart":"13:36","timeEnd":"5:20","products":[{"item":"c"},{"item":"a"},{"item":"b"},{"item":"b"},{"item":"c"},{"item":"a"}],"rawDATA":"Euro"},
{"id":87,"lon":"-100.9223","lat":"28.4932","address":"521 Fordem Court","zip":"30800","name":"Christopher Black","USDAid":8292532,"month":"ante ipsum","days":10,"timeStart":"23:19","timeEnd":"3:19","products":[{"item":"b"}],"rawDATA":"Peso"},
{"id":88,"lon":"12.1243","lat":"54.1243","address":"4861 Darwin Junction","zip":"18147","name":"Anthony Sanchez","USDAid":5285446,"month":"natoque","days":26,"timeStart":"10:11","timeEnd":"22:33","products":[{"item":"c"},{"item":"b"},{"item":"c"},{"item":"c"},{"item":"b"},{"item":"a"}],"rawDATA":"Euro"},
{"id":89,"lon":"98.59579","lat":"31.81649","address":"55505 Merrick Trail","zip":null,"name":"Martin Black","USDAid":6041010,"month":"quam","days":25,"timeStart":"5:02","timeEnd":"10:58","products":[{"item":"c"},{"item":"b"},{"item":"a"},{"item":"b"},{"item":"c"}],"rawDATA":"Yuan Renminbi"},
{"id":90,"lon":"-48.27944","lat":"-17.29972","address":"62 Grover Center","zip":"75200-000","name":"Barbara Evans","USDAid":8728761,"month":"in","days":26,"timeStart":"12:15","timeEnd":"1:59","products":[{"item":"c"}],"rawDATA":"Real"},
{"id":91,"lon":"14.61824","lat":"50.91154","address":"86825 Banding Parkway","zip":"407 47","name":"Rebecca Gordon","USDAid":9470409,"month":"porttitor pede","days":1,"timeStart":"7:20","timeEnd":"1:35","products":[{"item":"a"},{"item":"b"}],"rawDATA":"Koruna"},
{"id":92,"lon":"114.99596","lat":"27.14409","address":"42116 Mesta Hill","zip":null,"name":"Richard Garza","USDAid":2067805,"month":"a","days":14,"timeStart":"22:49","timeEnd":"9:12","products":[{"item":"c"},{"item":"c"},{"item":"b"},{"item":"c"},{"item":"c"},{"item":"a"},{"item":"c"},{"item":"c"},{"item":"c"},{"item":"a"}],"rawDATA":"Yuan Renminbi"},
{"id":93,"lon":"50.50389","lat":"26.06861","address":"43 Bunker Hill Road","zip":null,"name":"Samuel Watson","USDAid":2337730,"month":"pede","days":8,"timeStart":"6:54","timeEnd":"11:56","products":[{"item":"a"},{"item":"a"},{"item":"b"},{"item":"b"}],"rawDATA":"Dinar"},
{"id":94,"lon":"65.68952","lat":"38.64501","address":"9 Springview Way","zip":null,"name":"Tina Gordon","USDAid":9844907,"month":"adipiscing","days":30,"timeStart":"5:30","timeEnd":"16:13","products":[{"item":"a"},{"item":"a"},{"item":"b"}],"rawDATA":"Som"},
{"id":95,"lon":"103.03569","lat":"11.54665","address":"4 Holmberg Alley","zip":null,"name":"Katherine Garrett","USDAid":4205821,"month":"dignissim vestibulum","days":22,"timeStart":"5:49","timeEnd":"7:53","products":[{"item":"a"},{"item":"a"},{"item":"b"},{"item":"a"},{"item":"c"},{"item":"c"},{"item":"a"}],"rawDATA":"Riels"},
{"id":96,"lon":"48.35583","lat":"33.48778","address":"46123 Northport Park","zip":null,"name":"Roger Price","USDAid":3185585,"month":"sed sagittis","days":16,"timeStart":"14:34","timeEnd":"21:01","products":[{"item":"a"},{"item":"b"},{"item":"b"},{"item":"a"},{"item":"b"},{"item":"c"},{"item":"b"}],"rawDATA":"Rial"},
{"id":97,"lon":"120.5722","lat":"-8.4569","address":"3939 Vidon Avenue","zip":null,"name":"Edward Stephens","USDAid":2732031,"month":"in hac","days":14,"timeStart":"17:26","timeEnd":"12:54","products":[{"item":"b"},{"item":"b"},{"item":"c"},{"item":"b"},{"item":"c"},{"item":"b"},{"item":"c"},{"item":"b"},{"item":"b"},{"item":"c"}],"rawDATA":"Rupiah"},
{"id":98,"lon":"112.34523","lat":"22.95169","address":"3 Stuart Street","zip":null,"name":"Lawrence Lopez","USDAid":4715054,"month":"amet","days":20,"timeStart":"0:05","timeEnd":"14:11","products":[{"item":"c"},{"item":"b"},{"item":"b"},{"item":"c"},{"item":"a"},{"item":"a"}],"rawDATA":"Yuan Renminbi"},
{"id":99,"lon":"15.69622","lat":"50.48623","address":"45959 Katie Place","zip":"565 01","name":"Carolyn Bailey","USDAid":8508781,"month":"dictumst","days":1,"timeStart":"11:18","timeEnd":"21:10","products":[{"item":"a"},{"item":"a"},{"item":"c"},{"item":"b"},{"item":"c"},{"item":"b"},{"item":"b"},{"item":"a"}],"rawDATA":"Koruna"},
{"id":100,"lon":"127.0489","lat":"45.0518","address":"47260 Anniversary Crossing","zip":null,"name":"Tina Roberts","USDAid":2701173,"month":"sapien","days":28,"timeStart":"19:26","timeEnd":"13:54","products":[{"item":"c"},{"item":"c"},{"item":"a"},{"item":"c"},{"item":"c"},{"item":"c"},{"item":"c"},{"item":"a"}],"rawDATA":"Yuan Renminbi"}]